     3.03           OBSERVATION DATA    M: Mixed            RINEX VERSION / TYPE
CONVBIN 1.0.1 Emlid                     20240128 175237 UTC PGM / RUN BY / DATE 
log: MACROCOSM-2_raw_202401281751.24                        COMMENT             
format: u-blox                                              COMMENT             
                                                            MARKER NAME         
                                                            MARKER NUMBER       
                                                            MARKER TYPE         
                                                            OBSERVER / AGENCY   
                    EMLID REACH M2                          REC # / TYPE / VERS 
                                                            ANT # / TYPE        
        0.0000        0.0000        0.0000                  APPROX POSITION XYZ 
        0.0000        0.0000        0.0000                  ANTENNA: DELTA H/E/N
G    8 C1C L1C D1C S1C C2X L2X D2X S2X                      SYS / # / OBS TYPES 
R    8 C1C L1C D1C S1C C2C L2C D2C S2C                      SYS / # / OBS TYPES 
E    8 C1X L1X D1X S1X C7X L7X D7X S7X                      SYS / # / OBS TYPES 
J    8 C1C L1C D1C S1C C2X L2X D2X S2X                      SYS / # / OBS TYPES 
C    8 C2I L2I D2I S2I C7I L7I D7I S7I                      SYS / # / OBS TYPES 
     1.000                                                  INTERVAL            
  2024     1    28    17    52    4.0000000     GPS         TIME OF FIRST OBS   
  2024     1    28    17    52   55.0000000     GPS         TIME OF LAST OBS    
G                                                           SYS / PHASE SHIFT   
R                                                           SYS / PHASE SHIFT   
E                                                           SYS / PHASE SHIFT   
J                                                           SYS / PHASE SHIFT   
C                                                           SYS / PHASE SHIFT   
  0                                                         GLONASS SLOT / FRQ #
 C1C    0.000 C1P    0.000 C2C    0.000 C2P    0.000        GLONASS COD/PHS/BIS 
                                                            END OF HEADER       
> 2024  1 28 17 52  4.0000000  0  4                     
G 4  21515882.156 2 113066719.04914     -2935.369          35.000                                                                  
G 7  24946126.254 4               7      1905.444          30.000                                                                  
G 8  20531220.580 2 107892291.838 5     -1479.818          33.000                                                                  
G 9  22440736.241 2               6      -774.664          29.000                                                                  
> 2024  1 28 17 52  5.0000000  0  4                     
G 4  21516440.916 2 113069655.160 4     -2936.879          34.000                                                                  
G 7  24945763.913 4               7      1903.667          30.000                                                                  
G 8  20531502.417 2 107893772.271 5     -1481.064          33.000                                                                  
G 9  22440883.792 2 117927639.65415      -776.941          29.000                                                                  
> 2024  1 28 17 52  6.0000000  0  4                     
G 4  21517000.113 2 113072593.267 4     -2939.152          35.000                                                                  
G 7  24945401.952 4               6      1901.116          31.000                                                                  
G 8  20531784.785 2 107895254.853 5     -1483.924          34.000                                                                  
G 9  22441031.683 2 117928417.611 5      -779.093          28.000                                                                  
> 2024  1 28 17 52  7.0000000  0  4                     
G 4  21517559.991 1 113075533.567 3     -2941.646          35.000                                                                  
G 7  24945040.229 4               6      1900.724          31.000                                                                  
G 8  20532067.197 2 107896739.692 4     -1485.741          34.000                                                                  
G 9  22441179.894 2               6      -781.000          28.000                                                                  
> 2024  1 28 17 52  8.0000000  0  4                     
G 4  21518120.159 1 113078475.864 3     -2943.008          36.000                                                                  
G 7  24944678.763 4               6      1900.022          30.000                                                                  
G 8  20532350.106 2 107898226.593 4     -1487.931          33.000                                                                  
G 9  22441328.257 2               7      -783.303          27.000                                                                  
> 2024  1 28 17 52  9.0000000  0  4                     
G 4  21518680.761 1 113081420.317 3     -2945.549          36.000                                                                  
G 7  24944317.482 2               6      1898.536          30.000                                                                  
G 8  20532633.668 2 107899715.695 4     -1490.245          34.000                                                                  
G 9  22441477.150 2                      -786.281          27.000                                                                  
> 2024  1 28 17 52 10.0000000  0  4                     
G 4  21519241.847 1 113084366.811 3     -2948.060          36.000                                                                  
G 7  24943956.736 2               6      1896.920          30.000                                                                  
G 8  20532917.755 2 107901207.029 4     -1492.488          34.000                                                                  
G 9  22441626.782 2                      -788.195          28.000                                                                  
> 2024  1 28 17 52 11.0000000  0  4                     
G 4  21519803.065 1 113087315.192 4     -2949.283          35.000                                                                  
G 7  24943595.978 2               6      1895.344          31.000                                                                  
G 8  20533202.008 2 107902700.331 3     -1494.655          35.000                                                                  
G 9  22441776.740 2               7      -789.896          28.000                                                                  
> 2024  1 28 17 52 12.0000000  0  4                     
G 4  21520364.693 1 113090265.645 3     -2952.122          36.000                                                                  
G 7  24943235.609 4               6      1894.028          30.000                                                                  
G 8  20533486.789 1 107904195.719 3     -1496.586          35.000                                                                  
G 9  22441927.184 2               7      -791.967          28.000                                                                  
> 2024  1 28 17 52 13.0000000  0  4                     
G 4  21520926.706 1 113093217.947 3     -2953.210          36.000                                                                  
G 7  24942875.468 4               7      1893.611          30.000                                                                  
G 8  20533771.966 1 107905693.132 3     -1498.008          36.000                                                                  
G 9  22442078.365 2 117933924.884 5      -794.180          29.000                                                                  
> 2024  1 28 17 52 14.0000000  0  4                     
G 4  21521488.981 1 113096172.156 3     -2955.509          35.000                                                                  
G 7  24942515.602 4                      1891.364          29.000                                                                  
G 8  20534057.612 1 107907192.432 4     -1500.235          35.000                                                                  
G 9  22442229.775 2               7      -795.788          29.000                                                                  
> 2024  1 28 17 52 15.0000000  0  4                     
G 4  21522051.529 1 113099128.223 4     -2957.635          34.000                                                                  
G 7  24942155.956 2               7      1890.225          29.000                                                                  
G 8  20534343.654 1 107908693.767 4     -1502.164          35.000                                                                  
G 9  22442381.372 2               7      -797.945          29.000                                                                  
> 2024  1 28 17 52 16.0000000  0  4                     
G 4  21522614.503 1 113102086.170 4     -2958.053          34.000                                                                  
G 7  24941796.438 2               7      1888.777          29.000                                                                  
G 8  20534629.961 1 107910197.100 4     -1504.036          35.000                                                                  
G 9  22442533.036 2               6      -800.266          28.000                                                                  
> 2024  1 28 17 52 17.0000000  0  4                     
G 4  21523177.907 1 113105046.219 4     -2960.574          34.000                                                                  
G 7  24941437.175 2               7      1886.889          28.000                                                                  
G 8  20534916.745 1 107911702.530 3     -1506.151          35.000                                                                  
G 9  22442685.275 2               6      -801.869          29.000                                                                  
> 2024  1 28 17 52 18.0000000  0  4                     
G 4  21523741.571 1 113108008.224 4     -2962.938          34.000                                                                  
G 7  24941078.107 2               7      1886.012          27.000                                                                  
G 8  20535203.658 1 107913210.045 4     -1508.743          33.000                                                                  
G 9  22442838.013 2               6      -803.988          29.000                                                                  
> 2024  1 28 17 52 19.0000000  0  4                     
G 4  21524305.646 1 113110972.152 4     -2964.667          34.000                                                                  
G 7  24940719.231 2                      1884.812          26.000                                                                  
G 8  20535491.052 1 107914719.597 5     -1510.558          33.000                                                                  
G 9  22442991.221 2               6      -806.562          28.000                                                                  
> 2024  1 28 17 52 20.0000000  0  4                     
G 4  21524870.057 1 113113937.975 4     -2967.028          35.000                                                                  
G 7  24940360.786 4                      1882.311          25.000                                                                  
G 8  20535778.870 1 107916231.105 4     -1513.027          34.000                                                                  
G 9  22443144.520 2                      -808.081          26.000                                                                  
> 2024  1 28 17 52 21.0000000  0  4                     
G 4  21525434.867 1 113116905.904 3     -2969.566          35.000                                                                  
G 7  24940002.440 4                      1882.583          24.000                                                                  
G 8  20536067.072 1 107917744.792 4     -1514.878          34.000                                                                  
G 9  22443298.255 2                      -809.983          26.000                                                                  
> 2024  1 28 17 52 22.0000000  0  4                     
G 4  21526000.145 1 113119875.710 4     -2970.635          36.000                                                                  
G 7  24939644.429 4                      1881.099          23.000                                                                  
G 8  20536355.646 1 107919260.526 4     -1516.233          34.000                                                                  
G 9  22443452.458 2                      -812.003          27.000                                                                  
> 2024  1 28 17 52 23.0000000  0  4                     
G 4  21526565.716 1 113122847.503 4     -2972.996          35.000                                                                  
G 7  24939286.796 4                      1877.722          24.000                                                                  
G 8  20536644.561 1 107920778.251 5     -1518.804          33.000                                                                  
G 9  22443607.065 2               7      -814.435          28.000                                                                  
> 2024  1 28 17 52 24.0000000  0  4                     
G 4  21527131.681 1 113125821.208 4     -2975.015          35.000                                                                  
G 7  24938929.276 4                      1877.922          24.000                                                                  
G 8  20536933.678 1 107922297.962 4     -1520.704          33.000                                                                  
G 9  22443762.060 2               7      -816.413          29.000                                                                  
> 2024  1 28 17 52 25.0000000  0  4                     
G 4  21527697.939 2 113128796.854 5     -2976.510          34.000                                                                  
G 7  24938572.663 9                      1869.518          21.000                                                                  
G 8  20537223.214 1 107923819.718 5     -1523.148          33.000                                                                  
G 9  22443917.537 2                      -818.671          29.000                                                                  
> 2024  1 28 17 52 26.0000000  0  4                     
G 4  21528264.579 2 113131774.454 5     -2978.756          33.000                                                                  
G 7  24938216.136 9                      1874.353          19.000                                                                  
G 8  20537513.024 2               6     -1524.543          31.000                                                                  
G 9  22444073.287 2                      -820.132          27.000                                                                  
> 2024  1 28 17 52 27.0000000  0  4                     
G 4  21528831.684 2 113134754.134 5     -2980.437          32.000                                                                  
G 7  24937860.684 9                      1870.457          18.000                                                                  
G 8  20537803.098 4               6     -1526.513          30.000                                                                  
G 9  22444229.598 2                      -823.174          27.000                                                                  
> 2024  1 28 17 52 28.0000000  0  4                     
G 4  21529399.101 2               7     -2983.111          31.000                                                                  
G 7  24937505.525 9                      1874.869          21.000                                                                  
G 8  20538093.648 2               7     -1528.970          30.000                                                                  
G 9  22444386.288 2                      -824.987          27.000                                                                  
> 2024  1 28 17 52 29.0000000  0  4                     
G 4  21529966.811 2               7     -2983.276          30.000                                                                  
G 7  24937148.116 9                      1871.327          25.000                                                                  
G 8  20538384.716 2               7     -1530.373          30.000                                                                  
G 9  22444543.279 2                      -827.573          27.000                                                                  
> 2024  1 28 17 52 30.0000000  0  4                     
G 4  21530534.835 2               6     -2985.710          31.000                                                                  
G 7  24936789.763 9                      1870.842          23.000                                                                  
G 8  20538676.399 2 107931459.323 5     -1532.540          31.000                                                                  
G 9  22444700.742 2                      -829.462          27.000                                                                  
> 2024  1 28 17 52 31.0000000  0  4                     
G 4  21531103.390 2               6     -2988.323          31.000                                                                  
G 7  24936432.963 9                      1868.539          24.000                                                                  
G 8  20538968.302 4               7     -1536.081          30.000                                                                  
G 9  22444858.666 2               7      -831.719          28.000                                                                  
> 2024  1 28 17 52 32.0000000  0  4                     
G 4  21531672.244 4               7     -2990.427          30.000                                                                  
G 7  24936079.642 9                      1866.623          25.000                                                                  
G 8  20539260.512 2               7     -1537.580          29.000                                                                  
G 9  22445017.081 2               6      -833.386          28.000                                                                  
> 2024  1 28 17 52 33.0000000  0  4                     
G 4  21532241.683 2               7     -2991.838          29.000                                                                  
G 7  24935723.587 9                      1865.424          25.000                                                                  
G 8  20539553.001 2               7     -1539.419          29.000                                                                  
G 9  22445175.857 2               7      -835.281          27.000                                                                  
> 2024  1 28 17 52 34.0000000  0  4                     
G 4  21532811.354 2               7     -2995.066          30.000                                                                  
G 7  24935366.087 9                      1861.354          26.000                                                                  
G 8  20539845.969 2               6     -1541.372          30.000                                                                  
G 9  22445334.982 2               7      -837.170          27.000                                                                  
> 2024  1 28 17 52 35.0000000  0  4                     
G 4  21533381.438 2               6     -2995.611          31.000                                                                  
G 7  24935009.589 9                      1863.821          25.000                                                                  
G 8  20540139.772 2               6     -1542.566          30.000                                                                  
G 9  22445494.442 2                      -839.238          27.000                                                                  
> 2024  1 28 17 52 36.0000000  0  4                     
G 4  21533951.895 4               7     -2997.153          31.000                                                                  
G 7  24934654.208 9                      1857.475          23.000                                                                  
G 8  20540433.758 2 107940695.463 5     -1545.656          30.000                                                                  
G 9  22445654.487 2               7      -841.611          27.000                                                                  
> 2024  1 28 17 52 37.0000000  0  4                     
G 4  21534522.636 4               7     -3001.147          32.000                                                                  
G 7  24934298.745 9                      1861.072          24.000                                                                  
G 8  20540728.154 2               6     -1547.689          29.000                                                                  
G 9  22445814.943 4                      -843.764          25.000                                                                  
> 2024  1 28 17 52 38.0000000  0  4                     
G 4  21535093.868 2               6     -3002.269          31.000                                                                  
G 7  24933943.660 9                      1863.827          24.000                                                                  
G 8  20541022.871 2               7     -1549.739          27.000                                                                  
G 9  22445975.503 4                      -846.093          24.000                                                                  
> 2024  1 28 17 52 39.0000000  0  4                     
G 4  21535665.418 4               7     -3004.172          30.000                                                                  
G 7  24933589.091 9                      1860.947          23.000                                                                  
G 8  20541317.986 2               7     -1552.136          27.000                                                                  
G 9  22446136.936 9                      -842.342          22.000                                                                  
> 2024  1 28 17 52 40.0000000  0  4                     
G 4  21536237.248 2               7     -3005.599          29.000                                                                  
G 7  24933235.041 9                      1856.926          20.000                                                                  
G 8  20541613.540 2               7     -1553.724          28.000                                                                  
G 9  22446295.629 9                      -844.837          22.000                                                                  
> 2024  1 28 17 52 41.0000000  0  4                     
G 4  21536809.417 2               6     -3008.119          29.000                                                                  
G 7  24932879.597 9                      1850.049          18.000                                                                  
G 8  20541909.456 2               7     -1555.791          29.000                                                                  
G 9  22446455.086 9                      -859.052          20.000                                                                  
> 2024  1 28 17 52 42.0000000  0  4                     
G 4  21537382.175 2               7     -3009.828          28.000                                                                  
G 7  24932525.676 9                      1859.831          17.000                                                                  
G 8  20542205.641 2                     -1556.790          28.000                                                                  
G 9  22446615.990 9                      -861.578          20.000                                                                  
> 2024  1 28 17 52 43.0000000  0  4                     
G 4  21537955.238 2               6     -3011.798          28.000                                                                  
G 7  24932172.012 9                      1850.904          18.000                                                                  
G 8  20542502.363 2                     -1559.556          27.000                                                                  
G 9  22446778.227 9                      -852.689          19.000                                                                  
> 2024  1 28 17 52 44.0000000  0  4                     
G 4  21538528.491 2               6     -3013.501          29.000                                                                  
G 7  24931818.965 9                      1836.882          16.000                                                                  
G 8  20542799.397 2                     -1561.346          26.000                                                                  
G 9  22446941.942 9                      -861.048          18.000                                                                  
> 2024  1 28 17 52 45.0000000  0  4                     
G 4  21539102.308 2               6     -3014.283          29.000                                                                  
G 7  24931468.666 9                      1849.708          17.000                                                                  
G 8  20543096.961 2                     -1563.816          27.000                                                                  
G 9  22447104.618 9                      -863.526          19.000                                                                  
> 2024  1 28 17 52 46.0000000  0  4                     
G 4  21539676.065 8               7     -3017.443          28.000                                                                  
G 7  24931115.415 9                      1852.777          17.000                                                                  
G 8  20543394.815 4                     -1566.449          28.000                                                                  
G 9  22447267.310 9                      -858.016          20.000                                                                  
> 2024  1 28 17 52 47.0000000  0  4                     
G 4  21540250.827 8               7     -3019.514          28.000                                                                  
G 7  24930764.321 9                      1840.455          17.000                                                                  
G 8  20543693.031 2               7     -1567.598          29.000                                                                  
G 9  22447432.094 9                      -866.169          20.000                                                                  
> 2024  1 28 17 52 48.0000000  0  4                     
G 4  21540825.006 4               7     -3021.520          27.000                                                                  
G 7  24930413.154 9                      1848.686          18.000                                                                  
G 8  20543991.532 2               7     -1569.629          28.000                                                                  
G 9  22447597.308 9                      -859.786          20.000                                                                  
> 2024  1 28 17 52 49.0000000  0  4                     
G 4  21541399.653 8               7     -3023.209          27.000                                                                  
G 7  24930060.657 9                      1839.684          18.000                                                                  
G 8  20544290.498 2               7     -1571.569          27.000                                                                  
G 9  22447760.240 9                      -863.588          19.000                                                                  
> 2024  1 28 17 52 50.0000000  0  4                     
G 4  21541975.954 8               7     -3025.037          28.000                                                                  
G 7  24929707.987 9                      1845.872          17.000                                                                  
G 8  20544589.638 2               7     -1573.099          28.000                                                                  
G 9  22447924.719 9                      -875.481          21.000                                                                  
> 2024  1 28 17 52 51.0000000  0  4                     
G 4  21542550.922 8                     -3026.656          28.000                                                                  
G 7  24929357.115 9                      1829.715          18.000                                                                  
G 8  20544889.225 2               7     -1575.598          28.000                                                                  
G 9  22448090.640 9                      -867.400          21.000                                                                  
> 2024  1 28 17 52 52.0000000  0  4                     
G 4  21543127.603 4               7     -3029.209          28.000                                                                  
G 7  24929007.831 9                      1843.770          19.000                                                                  
G 8  20545189.056 2               7     -1577.214          28.000                                                                  
G 9  22448257.632 9                      -879.193          21.000                                                                  
> 2024  1 28 17 52 53.0000000  0  4                     
G 4  21543704.140 8               7     -3031.020          28.000                                                                  
G 7  24928659.095 9                      1839.684          20.000                                                                  
G 8  20545489.580 2               7     -1579.285          27.000                                                                  
G 9  22448423.085 9                      -875.473          21.000                                                                  
> 2024  1 28 17 52 54.0000000  0  4                     
G 4  21544280.100 8               7     -3032.807          27.000                                                                  
G 7  24928309.227 9                      1836.186          20.000                                                                  
G 8  20545790.337 2               7     -1581.147          27.000                                                                  
G 9  22448590.809 9                      -886.404          21.000                                                                  
> 2024  1 28 17 52 55.0000000  0  4                     
G 4  21544858.086 8                     -3034.056          26.000                                                                  
G 7  24927961.453 9                      1845.341          19.000                                                                  
G 8  20546091.523 2                     -1582.532          26.000                                                                  
G 9  22448756.849 9                      -870.815          21.000                                                                  
